,shop_name,shop_address,shop_lat,shop_lng,types
0,Butchertown Hall,"1416 4th Ave N, Nashville, TN 37208",36.1797736,-86.78915479999999,"['restaurant', 'food', 'point_of_interest', 'establishment']"
1,The Optimist,"1400 Adams St, Nashville, TN 37208",36.1812902,-86.7841344,"['restaurant', 'food', 'point_of_interest', 'establishment']"
2,Saint Stephen,"1300 3rd Ave N, Nashville, TN 37208",36.1779218,-86.7864236,"['restaurant', 'food', 'point_of_interest', 'establishment']"
3,City House,"1222 4th Ave N, Nashville, TN 37208",36.176923,-86.787262,"['restaurant', 'food', 'point_of_interest', 'establishment']"
4,Steam Boys,"1200 2nd Ave N, Nashville, TN 37208",36.1769443,-86.78452419999999,"['restaurant', 'food', 'point_of_interest', 'establishment']"
5,Monell's,"1235 6th Ave N, Nashville, TN 37208",36.175825,-86.79025279999999,"['restaurant', 'food', 'point_of_interest', 'establishment']"
6,Germantown Café,"1200 5th Ave N, Nashville, TN 37208",36.175456,-86.78786,"['restaurant', 'cafe', 'food', 'point_of_interest', 'establishment']"
7,Kingdom Café & Grill,"2610 Jefferson St, Nashville, TN 37208",36.1683257,-86.8178566,"['cafe', 'restaurant', 'food', 'point_of_interest', 'establishment']"
8,Le Loup,"1400 Adams St, Nashville, TN 37208",36.1814403,-86.7841684,"['restaurant', 'food', 'point_of_interest', 'establishment']"
9,Sedona Taphouse,"1120 3rd Ave N, Nashville, TN 37208",36.1762419,-86.7852102,"['bar', 'restaurant', 'food', 'point_of_interest', 'establishment']"
10,Grillshack Fries and Burgers - Germantown,"1725 5th Ave N, Nashville, TN 37208",36.1838471,-86.79368869999999,"['restaurant', 'food', 'point_of_interest', 'establishment']"
11,The Goat Germantown,"1220 2nd Ave N Suite 100, Nashville, TN 37208",36.1778869,-86.78449239999999,"['restaurant', 'bar', 'food', 'point_of_interest', 'establishment']"
12,Rolf and Daughters,"700 Taylor St, Nashville, TN 37208",36.1775389,-86.7928833,"['restaurant', 'food', 'point_of_interest', 'establishment']"
13,Waldo's Chicken and Beer,"1120 4th Ave N Suite 103, Nashville, TN 37208",36.1758211,-86.7863666,"['restaurant', 'food', 'point_of_interest', 'establishment']"
14,5th & Taylor,"1411 5th Ave N, Nashville, TN 37208",36.1785965,-86.7905974,"['restaurant', 'food', 'point_of_interest', 'establishment']"
15,Veggie Village,"1314 6th Ave N, Nashville, TN 37208",36.1774207,-86.7906916,"['restaurant', 'food', 'point_of_interest', 'establishment']"
16,Geist Bar + Restaurant,"311 Jefferson St, Nashville, TN 37208",36.1746128,-86.7855091,"['bar', 'restaurant', 'food', 'point_of_interest', 'establishment']"
17,Tailor Nashville,"620 Taylor St, Nashville, TN 37208",36.17751459999999,-86.79226580000001,"['restaurant', 'food', 'point_of_interest', 'establishment']"
18,O-Ku,"81 Van Buren St, Nashville, TN 37208",36.1818581,-86.78479569999999,"['bar', 'restaurant', 'food', 'point_of_interest', 'establishment']"
19,Ooh Wee Bar-B-Q,"2008 Jefferson St, Nashville, TN 37208",36.16917610000001,-86.81021849999999,"['restaurant', 'food', 'point_of_interest', 'establishment']"
20,Legumes Ethiopian vegetarian cafe,"900 Rosa L Parks Blvd, Nashville, TN 37208",36.170665,-86.78864039999999,"['restaurant', 'food', 'point_of_interest', 'establishment']"
21,Wingz and Friez,"2605 Jefferson St, Nashville, TN 37208",36.1679027,-86.81719319999999,"['restaurant', 'food', 'point_of_interest', 'establishment']"
22,Mother's Ruin,"1239 6th Ave N, Nashville, TN 37208",36.1760749,-86.7903929,"['bar', 'restaurant', 'food', 'point_of_interest', 'establishment']"
23,Tomacco Tacos + Tequila,"1120 4th Ave N Suite 101, Nashville, TN 37208",36.1758251,-86.7865571,"['restaurant', 'food', 'point_of_interest', 'establishment']"
24,Henrietta Red,"1200 4th Ave N, Nashville, TN 37208",36.1759616,-86.7867371,"['restaurant', 'food', 'point_of_interest', 'establishment']"
25,Chicago Style Gyros,"900 Rosa L Parks Blvd, Nashville, TN 37208",36.1706981,-86.7888114,"['restaurant', 'food', 'point_of_interest', 'establishment']"
26,Jamaicaway Restaurant and Catering,"900 Rosa L Parks Blvd Suite 120, Nashville, TN 37208",36.1707238,-86.7890228,"['restaurant', 'food', 'point_of_interest', 'establishment']"
27,312 Pizza Company,"371 Monroe St, Nashville, TN 37208",36.1770667,-86.78786939999999,"['meal_takeaway', 'bar', 'restaurant', 'food', 'point_of_interest', 'establishment']"
28,Seafood restaurant,"1400 Adams St, Nashville, TN 37208",36.1814403,-86.7841684,"['restaurant', 'food', 'point_of_interest', 'establishment']"
29,Caracasville,"900 Rosa L Parks Blvd, Nashville, TN 37208",36.1706189,-86.7888584,"['restaurant', 'food', 'point_of_interest', 'establishment']"
30,Seafood sensation,"2719 Jefferson St, Nashville, TN 37208",36.1672988,-86.8200689,"['restaurant', 'food', 'point_of_interest', 'establishment']"
31,re,"1416 5th Ave N, Nashville, TN 37208",36.1798657,-86.7891011,"['restaurant', 'food', 'point_of_interest', 'establishment']"
32,Germantown Pub,"708 Monroe St, Nashville, TN 37208",36.175707,-86.792555,"['restaurant', 'bar', 'food', 'point_of_interest', 'establishment']"
33,Green Asia,"900 Rosa L Parks Blvd, Nashville, TN 37208",36.17083119999999,-86.7886746,"['restaurant', 'food', 'point_of_interest', 'establishment']"
34,El Burrito Mexicano,"900 Rosa L Parks Blvd #111, Nashville, TN 37208",36.1708716,-86.78870429999999,"['restaurant', 'food', 'point_of_interest', 'establishment']"
35,EG&MC Cocktail & Tapas Bar,"924 Jefferson St, Nashville, TN 37208",36.1728615,-86.7937664,"['night_club', 'bar', 'restaurant', 'food', 'point_of_interest', 'establishment']"
36,Mary's Old Fashioned Pit Bar-B-Que,"1106 Jefferson St, Nashville, TN 37208",36.1719713,-86.7975008,"['restaurant', 'food', 'point_of_interest', 'establishment']"
37,Helen's Hot Chicken,"1801 Jefferson St #101, Nashville, TN 37208",36.1690865,-86.8069177,"['restaurant', 'food', 'point_of_interest', 'establishment']"
38,TJ's BarBQ And Fish,"1104 Ed Temple Blvd, Nashville, TN 37208",36.168493,-86.82072,"['restaurant', 'food', 'point_of_interest', 'establishment']"
39,Samurai sushi & Korean Pub.[Germantown],"1318 6th Ave N, Nashville, TN 37208",36.1776525,-86.7908492,"['bar', 'restaurant', 'food', 'point_of_interest', 'establishment']"
40,Little Hats Market,"1120 4th Ave N Suite 101, Nashville, TN 37208",36.1757805,-86.786664,"['restaurant', 'food', 'point_of_interest', 'establishment']"
41,Falla The Smoke Jamaican Food,"943 28th Ave N, Nashville, TN 37208",36.1638105,-86.8201088,"['restaurant', 'food', 'point_of_interest', 'establishment']"
42,Jack Brown's Beer and Burger Joint Germantown,"1123 3rd Ave N, Nashville, TN 37208",36.1759528,-86.78560829999999,"['bar', 'restaurant', 'food', 'point_of_interest', 'establishment']"
43,Bowl & Roll,"900 Rosa L Parks Blvd, Nashville, TN 37208",36.1706517,-86.78891949999999,"['restaurant', 'food', 'point_of_interest', 'establishment']"
44,Silver Sands Café,"937 Locklayer St, Nashville, TN 37208",36.1699355,-86.7929743,"['cafe', 'restaurant', 'food', 'point_of_interest', 'establishment']"
45,B&C Market BBQ,"900 Rosa L Parks Blvd, Nashville, TN 37208",36.1704131,-86.7887916,"['restaurant', 'food', 'point_of_interest', 'establishment']"
46,Slim + Husky's Pizza,"911 Buchanan St, Nashville, TN 37208",36.1803183,-86.8027414,"['meal_takeaway', 'bar', 'restaurant', 'food', 'point_of_interest', 'establishment']"
47,Sonny's Patio Pub and Refuge,"1322 6th Ave N, Nashville, TN 37208",36.1778029,-86.79105469999999,"['restaurant', 'food', 'point_of_interest', 'establishment']"
48,Riddim n Spice,"2116 Meharry Blvd, Nashville, TN 37208",36.1678891,-86.8106581,"['bar', 'restaurant', 'food', 'point_of_interest', 'establishment']"
49,Shellisa's Diner,"1601 9th Ave N, Nashville, TN 37208",36.1783133,-86.7987576,"['restaurant', 'food', 'point_of_interest', 'establishment']"
50,"Food Corner - Pizza, Gyros & Wings","2721 Clarksville Pike #A, Nashville, TN 37208",36.1875154,-86.8213698,"['restaurant', 'food', 'point_of_interest', 'establishment']"
51,The Southern V,"1200 Buchanan St, Nashville, TN 37208",36.1804028,-86.8069639,"['restaurant', 'food', 'point_of_interest', 'establishment']"
52,Swagruha,"900 Rosa L Parks Blvd, Nashville, TN 37208",36.1707903,-86.78904709999999,"['restaurant', 'food', 'point_of_interest', 'establishment']"
53,Star Rover Sound,"1400 Adams St, Nashville, TN 37208",36.1816362,-86.7843644,"['restaurant', 'food', 'point_of_interest', 'establishment']"
54,Willie B's Kitchen & Lounge,"918 Buchanan St, Nashville, TN 37208",36.1807525,-86.8028499,"['restaurant', 'night_club', 'bar', 'food', 'point_of_interest', 'establishment']"
55,The Last Hole Sports Bar & Grill,"1502 Jefferson St, Nashville, TN 37208",36.1706838,-86.8026733,"['bar', 'restaurant', 'food', 'point_of_interest', 'establishment']"
56,Wilkes Wings,"1828 4th Ave N, Nashville, TN 37208",36.1861478,-86.79405609999999,"['meal_takeaway', 'restaurant', 'food', 'point_of_interest', 'establishment']"
57,Bella Nashville Pizzeria,"900 Rosa L Parks Blvd, Nashville, TN 37208",36.1705327,-86.7884758,"['restaurant', 'food', 'point_of_interest', 'establishment']"
58,Rocky's Wing Shack,"1601 9th Ave N, Nashville, TN 37208",36.178329,-86.798754,"['restaurant', 'food', 'point_of_interest', 'establishment']"
59,Swett's,"2725 Clifton Ave, Nashville, TN 37209",36.1582604,-86.81809369999999,"['restaurant', 'food', 'point_of_interest', 'establishment']"
