,shop_name,shop_address,shop_lat,shop_lng,types
0,Larry's Quick Stop,"240 N 1st St, Nashville, TN 37213",36.1765293,-86.7751309,"['convenience_store', 'gas_station', 'grocery_or_supermarket', 'food', 'point_of_interest', 'store', 'establishment']"
1,Southernaire Market,"The Pinnacle at Symphony Place, 150 3rd Ave S, Nashville, TN 37201",36.159928,-86.774077,"['food', 'point_of_interest', 'store', 'establishment']"
2,Cardwell's Market,"9 Hermitage Ave, Nashville, TN 37210",36.1571023,-86.77025069999999,"['convenience_store', 'gas_station', 'food', 'point_of_interest', 'store', 'establishment']"
3,Savi Urban Market,"415 Church St, Nashville, TN 37219",36.1634125,-86.779421,"['grocery_or_supermarket', 'supermarket', 'food', 'point_of_interest', 'store', 'establishment']"
4,The Turnip Truck - East Nashville,"701 Woodland St, Nashville, TN 37206",36.1738247,-86.76001579999999,"['grocery_or_supermarket', 'food', 'health', 'point_of_interest', 'store', 'establishment']"
5,Downtown Fresh Market,"531 4th Ave S, Nashville, TN 37210",36.1549405,-86.7734169,"['grocery_or_supermarket', 'convenience_store', 'food', 'point_of_interest', 'store', 'establishment']"
6,4 Way Market,"1401 Fatherland St, Nashville, TN 37206",36.1739353,-86.7459564,"['grocery_or_supermarket', 'supermarket', 'food', 'point_of_interest', 'store', 'establishment']"
7,Whole Foods Market,"1202 Broadway, Nashville, TN 37203",36.1567496,-86.7880596,"['grocery_or_supermarket', 'supermarket', 'food', 'health', 'point_of_interest', 'store', 'establishment']"
8,Kroger,"800 Monroe St, Nashville, TN 37208",36.1758803,-86.7942479,"['grocery_or_supermarket', 'food', 'point_of_interest', 'store', 'establishment']"
9,Publix Super Market at Capitol View,"1010 Dr Martin L King Jr Blvd, Nashville, TN 37203",36.1630486,-86.7903632,"['supermarket', 'florist', 'bakery', 'grocery_or_supermarket', 'liquor_store', 'food', 'point_of_interest', 'store', 'establishment']"
10,Lucky Market,"141 Lafayette St, Nashville, TN 37210",36.1474762,-86.7593486,"['grocery_or_supermarket', 'food', 'point_of_interest', 'store', 'establishment']"
11,The Turnip Truck - Gulch,"321 12th Ave S, Nashville, TN 37203",36.1527599,-86.78545869999999,"['grocery_or_supermarket', 'food', 'health', 'point_of_interest', 'store', 'establishment']"
12,Five Star Market,"Ash St, Nashville, TN 37210",36.152107,-86.7727298,"['grocery_or_supermarket', 'food', 'point_of_interest', 'store', 'establishment']"
13,A AND M Marketplace,"900 Rosa L Parks Blvd suit 109, Nashville, TN 37208",36.1706189,-86.7888584,"['grocery_or_supermarket', 'food', 'point_of_interest', 'store', 'establishment']"
14,Star Market,"903 Dickerson Pike, Nashville, TN 37207",36.1877595,-86.7730452,"['convenience_store', 'grocery_or_supermarket', 'food', 'point_of_interest', 'store', 'establishment']"
15,Corner Market,"300 Church St, Nashville, TN 37201",36.1642907,-86.7778771,"['convenience_store', 'drugstore', 'cafe', 'liquor_store', 'food', 'health', 'point_of_interest', 'store', 'establishment']"
16,ALDI,"615 Gallatin Ave, Nashville, TN 37206",36.1832883,-86.7475518,"['supermarket', 'grocery_or_supermarket', 'food', 'point_of_interest', 'store', 'establishment']"
17,Uptown Fruit Market,"1431 Dickerson Pike, Nashville, TN 37207",36.1999223,-86.7696038,"['grocery_or_supermarket', 'finance', 'restaurant', 'food', 'point_of_interest', 'store', 'establishment']"
18,Swett's Market,"702 28th Ave N, Nashville, TN 37208",36.15901760000001,-86.8182096,"['grocery_or_supermarket', 'food', 'point_of_interest', 'store', 'establishment']"
19,Piggly Wiggly,"2317 Dickerson Pike, Nashville, TN 37207",36.2077791,-86.76702279999999,"['grocery_or_supermarket', 'supermarket', 'food', 'point_of_interest', 'store', 'establishment']"
20,Kroger,"711 Gallatin Ave, Nashville, TN 37206",36.1844297,-86.7468566,"['grocery_or_supermarket', 'food', 'point_of_interest', 'store', 'establishment']"
21,Resha's Bi-Rite Market,"717 25th Ave N, Nashville, TN 37208",36.1594967,-86.8140176,"['grocery_or_supermarket', 'supermarket', 'food', 'point_of_interest', 'store', 'establishment']"
22,Weiss Drive-In Market,"826 Main St, Nashville, TN 37206",36.1755409,-86.75727979999999,"['liquor_store', 'point_of_interest', 'store', 'establishment']"
23,Wedgehill Market,"600 Benton Ave, Nashville, TN 37204",36.1318851,-86.76877499999999,"['grocery_or_supermarket', 'supermarket', 'food', 'point_of_interest', 'store', 'establishment']"
24,Publix Super Market at Hill Center Greenwood,"1111 Gallatin Ave, Nashville, TN 37206",36.1898456,-86.7449475,"['supermarket', 'florist', 'bakery', 'grocery_or_supermarket', 'liquor_store', 'food', 'point_of_interest', 'store', 'establishment']"
25,Garibaldi Market,"2402 Dickerson Pike, Nashville, TN 37207",36.20863629999999,-86.7677653,"['grocery_or_supermarket', 'food', 'point_of_interest', 'store', 'establishment']"
26,Smiley's Produce,"900 Rosa L Parks Blvd, Nashville, TN 37208",36.1701397,-86.7885742,"['grocery_or_supermarket', 'food', 'point_of_interest', 'store', 'establishment']"
27,Flag Market,"2511 Dickerson Pike, Nashville, TN 37207",36.21165560000001,-86.7649471,"['grocery_or_supermarket', 'food', 'point_of_interest', 'store', 'establishment']"
28,7-Eleven,"227 Shelby Ave, Nashville, TN 37213",36.1662702,-86.766451,"['convenience_store', 'food', 'point_of_interest', 'store', 'establishment']"
29,Porter Road Grocery,"703 Porter Rd, Nashville, TN 37206",36.1827453,-86.73262629999999,"['grocery_or_supermarket', 'food', 'point_of_interest', 'store', 'establishment']"
30,Osborne's Bi-Rite,"3116 Belmont Blvd, Nashville, TN 37212",36.117707,-86.7967994,"['supermarket', 'grocery_or_supermarket', 'food', 'point_of_interest', 'store', 'establishment']"
31,InterAsian Market & Deli,"2160 Nolensville Pike, Nashville, TN 37211",36.1282806,-86.7535285,"['grocery_or_supermarket', 'food', 'point_of_interest', 'store', 'establishment']"
32,SAM'S MARKET,"2012 Clarksville Pike, Nashville, TN 37208",36.1832368,-86.812551,"['grocery_or_supermarket', 'food', 'point_of_interest', 'store', 'establishment']"
33,The Marketplace in East Nashville,"400 Davidson St, Nashville, TN 37213",36.1610051,-86.7633735,"['point_of_interest', 'establishment']"
34,Trinity Lane Market,"1905 Meridian St, Nashville, TN 37207",36.2054457,-86.7655468,"['convenience_store', 'supermarket', 'grocery_or_supermarket', 'food', 'point_of_interest', 'store', 'establishment']"
35,Save A Lot,"2400 Clarksville Pike, Nashville, TN 37208",36.1853833,-86.8159932,"['grocery_or_supermarket', 'supermarket', 'food', 'point_of_interest', 'store', 'establishment']"
36,Kroger,"2201 21st Ave S, Nashville, TN 37212",36.1301887,-86.80261089999999,"['grocery_or_supermarket', 'food', 'point_of_interest', 'store', 'establishment']"
37,Titan Deli Market,"2001 Dr DB Todd Jr Blvd, Nashville, TN 37208",36.1823898,-86.8126391,"['grocery_or_supermarket', 'food', 'point_of_interest', 'store', 'establishment']"
38,Aleksey's Market,"718 Thompson Ln, Nashville, TN 37204",36.1128669,-86.76522740000001,"['supermarket', 'grocery_or_supermarket', 'food', 'point_of_interest', 'store', 'establishment']"
39,H G Hill Food Stores,"3105 Dickerson Pike, Nashville, TN 37207",36.2301425,-86.7577511,"['grocery_or_supermarket', 'supermarket', 'food', 'point_of_interest', 'store', 'establishment']"
40,Rosie's Market,"3900 Charlotte Ave, Nashville, TN 37209",36.1527329,-86.83348,"['grocery_or_supermarket', 'food', 'point_of_interest', 'store', 'establishment']"
41,Big Mo Market,"125 Lafayette St, Nashville, TN 37210",36.1479793,-86.7607179,"['convenience_store', 'food', 'point_of_interest', 'store', 'establishment']"
42,Publix Super Market at Melrose,"2223 8th Ave S, Nashville, TN 37204",36.1285944,-86.7784628,"['supermarket', 'florist', 'bakery', 'grocery_or_supermarket', 'liquor_store', 'food', 'point_of_interest', 'store', 'establishment']"
43,Kroger,"143 McGavock Pk, Nashville, TN 37214",36.1708586,-86.6787306,"['grocery_or_supermarket', 'food', 'point_of_interest', 'store', 'establishment']"
44,"Phoenix Foods, Inc.","723 Cowan St, Nashville, TN 37207",36.1844911,-86.7760596,"['grocery_or_supermarket', 'food', 'point_of_interest', 'store', 'establishment']"
45,Restaurant Depot,"111 Oldham St, Nashville, TN 37213",36.17483000000001,-86.77256,"['food', 'point_of_interest', 'store', 'establishment']"
46,4 Stop Market,"1401 Woodland St, Nashville, TN 37206",36.1774721,-86.7455879,"['convenience_store', 'grocery_or_supermarket', 'food', 'point_of_interest', 'store', 'establishment']"
47,Kroger,"2615 Franklin Pike, Nashville, TN 37204",36.1199446,-86.7771798,"['grocery_or_supermarket', 'food', 'point_of_interest', 'store', 'establishment']"
48,Save A Lot,"1113 Murfreesboro Pike, Nashville, TN 37217",36.1257545,-86.7109041,"['grocery_or_supermarket', 'supermarket', 'food', 'point_of_interest', 'store', 'establishment']"
49,Woodbine Fresh Market,"3302 Nolensville Pike, Nashville, TN 37211",36.1014833,-86.739948,"['grocery_or_supermarket', 'food', 'point_of_interest', 'store', 'establishment']"
50,Publix Super Market at The Crossings,"2324 Lebanon Pike, Nashville, TN 37214",36.1707831,-86.68399869999999,"['supermarket', 'florist', 'bakery', 'grocery_or_supermarket', 'liquor_store', 'food', 'point_of_interest', 'store', 'establishment']"
51,Lewis Street Market,"37 Lewis St # A, Nashville, TN 37210",36.1481318,-86.758234,"['convenience_store', 'food', 'point_of_interest', 'store', 'establishment']"
52,Virginia's Market,"703 18th Ave S, Nashville, TN 37203",36.1509379,-86.794602,"['convenience_store', 'food', 'point_of_interest', 'store', 'establishment']"
53,International Food Mart,"2855 Logan St, Nashville, TN 37211",36.111472,-86.7421956,"['grocery_or_supermarket', 'restaurant', 'food', 'point_of_interest', 'store', 'establishment']"
54,DGX,"206 3rd Ave S, Nashville, TN 37201",36.1592225,-86.7743333,"['convenience_store', 'drugstore', 'home_goods_store', 'liquor_store', 'food', 'health', 'point_of_interest', 'store', 'establishment']"
55,K&S World Market,"5861 Charlotte Pike, Nashville, TN 37209",36.1470294,-86.8635401,"['grocery_or_supermarket', 'supermarket', 'food', 'point_of_interest', 'store', 'establishment']"
56,Steamville Hemp Co.,"1006 Fatherland St #203, Nashville, TN 37206",36.1740537,-86.7507742,"['store', 'grocery_or_supermarket', 'food', 'point_of_interest', 'establishment']"
57,Express Food Mart,"1101 Woodland St, Nashville, TN 37206",36.177783,-86.74959240000001,"['convenience_store', 'gas_station', 'food', 'point_of_interest', 'store', 'establishment']"
58,Pharaoh's Market,"1303 Jones Ave, Nashville, TN 37207",36.1942419,-86.75919619999999,"['point_of_interest', 'store', 'establishment']"
59,Osborne Brothers,"201 Eddings Ln, Nashville, TN 37214",36.1683607,-86.66142289999999,"['supermarket', 'grocery_or_supermarket', 'food', 'point_of_interest', 'store', 'establishment']"
