,shop_name,shop_address,shop_lat,shop_lng,types
0,7-Eleven,"3815 Hillsboro Pike, Nashville, TN 37215",36.1062656,-86.81391409999999,"['convenience_store', 'food', 'point_of_interest', 'store', 'establishment']"
1,7-Eleven,"4112 Hillsboro Pike, Nashville, TN 37215",36.1010749,-86.8181115,"['convenience_store', 'food', 'point_of_interest', 'store', 'establishment']"
2,Twice Daily,"4040 Hillsboro Pike, Nashville, TN 37215",36.10286,-86.81585,"['convenience_store', 'bakery', 'cafe', 'liquor_store', 'restaurant', 'food', 'point_of_interest', 'store', 'establishment']"
3,Circle K,"2001 Belmont Blvd, Nashville, TN 37212",36.1325585,-86.7959664,"['convenience_store', 'atm', 'gas_station', 'finance', 'food', 'point_of_interest', 'store', 'establishment']"
4,MAPCO,"2103 21st Ave S, Nashville, TN 37212",36.130663,-86.802104,"['gas_station', 'convenience_store', 'food', 'point_of_interest', 'store', 'establishment']"
5,Shell,"4040 Hillsboro Pike, Nashville, TN 37215",36.1030097,-86.8160836,"['gas_station', 'atm', 'convenience_store', 'finance', 'restaurant', 'food', 'point_of_interest', 'store', 'establishment']"
6,Twice Daily,"2607 12th Ave S, Nashville, TN 37204",36.12355,-86.79003,"['convenience_store', 'bakery', 'cafe', 'liquor_store', 'restaurant', 'food', 'point_of_interest', 'store', 'establishment']"
7,MAPCO,"1507 21st Ave S, Nashville, TN 37212",36.138915,-86.80095,"['gas_station', 'convenience_store', 'food', 'point_of_interest', 'store', 'establishment']"
8,Jack's Market,"4421 Murphy Rd, Nashville, TN 37209",36.1407102,-86.83981659999999,"['convenience_store', 'food', 'point_of_interest', 'store', 'establishment']"
9,Tiger Market,"2001 8th Ave S, Nashville, TN 37204",36.1339448,-86.7794612,"['convenience_store', 'food', 'point_of_interest', 'store', 'establishment']"
10,Tiger Mart,"3400 West End Ave, Nashville, TN 37203",36.1391673,-86.82003429999999,"['convenience_store', 'food', 'point_of_interest', 'store', 'establishment']"
11,Twice Daily,"2017 8th Ave S, Nashville, TN 37204",36.132442,-86.77965499999999,"['convenience_store', 'bakery', 'cafe', 'liquor_store', 'restaurant', 'food', 'point_of_interest', 'store', 'establishment']"
12,Cardwell's Market,"9 Hermitage Ave, Nashville, TN 37210",36.1571023,-86.77025069999999,"['convenience_store', 'gas_station', 'food', 'point_of_interest', 'store', 'establishment']"
13,Minit Saver Markets,"703 18th Ave S, Nashville, TN 37203",36.15091779999999,-86.7945953,"['convenience_store', 'food', 'point_of_interest', 'store', 'establishment']"
14,MAPCO Mart,"1909 8th Ave S, Nashville, TN 37203",36.134648,-86.779522,"['gas_station', 'convenience_store', 'food', 'point_of_interest', 'store', 'establishment']"
15,Twice Daily (Granny White Market),"5301 Granny White Pike, Brentwood, TN 37027",36.065117,-86.81340999999999,"['convenience_store', 'bakery', 'cafe', 'liquor_store', 'restaurant', 'food', 'point_of_interest', 'store', 'establishment']"
16,DGX,"2034 West End Ave, Nashville, TN 37203",36.15072869999999,-86.8011823,"['convenience_store', 'drugstore', 'home_goods_store', 'liquor_store', 'food', 'health', 'point_of_interest', 'store', 'establishment']"
17,7-Eleven,"2001 8th Ave S, Nashville, TN 37204",36.1339112,-86.77976869999999,"['convenience_store', 'food', 'point_of_interest', 'store', 'establishment']"
18,Virginia's Market,"703 18th Ave S, Nashville, TN 37203",36.1509379,-86.794602,"['convenience_store', 'food', 'point_of_interest', 'store', 'establishment']"
19,7-Eleven,"3400 West End Ave, Nashville, TN 37203",36.139095,-86.8200165,"['convenience_store', 'food', 'point_of_interest', 'store', 'establishment']"
20,7-Eleven,"7070 Us, Hwy 70 S, Nashville, TN 37221",36.0894717,-86.8914013,"['convenience_store', 'food', 'point_of_interest', 'store', 'establishment']"
21,4 Stop Market,"1401 Woodland St, Nashville, TN 37206",36.1774721,-86.7455879,"['convenience_store', 'grocery_or_supermarket', 'food', 'point_of_interest', 'store', 'establishment']"
22,Twice Daily,"1702 West End Ave, Nashville, TN 37203",36.15396,-86.79513,"['convenience_store', 'bakery', 'cafe', 'liquor_store', 'restaurant', 'food', 'point_of_interest', 'store', 'establishment']"
23,Tri Star Energy,"5315 Harding Pike #2805, Nashville, TN 37205",36.1005047,-86.87072560000001,"['convenience_store', 'food', 'point_of_interest', 'store', 'establishment']"
24,Melrose Gas Station,"2609 8th Ave S, Nashville, TN 37204",36.1215541,-86.7757476,"['gas_station', 'convenience_store', 'food', 'point_of_interest', 'store', 'establishment']"
25,Twice Daily,"648 Thompson Ln, Nashville, TN 37204",36.111786,-86.75788,"['convenience_store', 'bakery', 'cafe', 'liquor_store', 'restaurant', 'food', 'point_of_interest', 'store', 'establishment']"
26,Corner Market,"300 Church St, Nashville, TN 37201",36.1642907,-86.7778771,"['convenience_store', 'drugstore', 'cafe', 'liquor_store', 'food', 'health', 'point_of_interest', 'store', 'establishment']"
27,Tri Star Energy,"724 Thompson Ln #3195, Nashville, TN 37204",36.112574,-86.76657000000002,"['convenience_store', 'food', 'point_of_interest', 'store', 'establishment']"
28,Shell,"4409 Harding Pike, Nashville, TN 37205",36.1249945,-86.8472072,"['gas_station', 'atm', 'convenience_store', 'finance', 'food', 'point_of_interest', 'store', 'establishment']"
29,Circle K,"2200 Nolensville Pike, Nashville, TN 37211",36.12584,-86.75255899999999,"['convenience_store', 'atm', 'gas_station', 'finance', 'food', 'point_of_interest', 'store', 'establishment']"
30,Twice Daily,"2112 Charlotte Ave, Nashville, TN 37203",36.156704,-86.80691999999999,"['convenience_store', 'bakery', 'cafe', 'liquor_store', 'restaurant', 'food', 'point_of_interest', 'store', 'establishment']"
31,One Stop Market,"626 40th Ave N, Nashville, TN 37209",36.1568918,-86.8339822,"['convenience_store', 'food', 'point_of_interest', 'store', 'establishment']"
32,Stop-N-Shop,"5100 Indiana Ave, Nashville, TN 37209",36.1566546,-86.8490004,"['convenience_store', 'food', 'point_of_interest', 'store', 'establishment']"
33,DGX,"206 3rd Ave S, Nashville, TN 37201",36.1592225,-86.7743333,"['convenience_store', 'drugstore', 'home_goods_store', 'liquor_store', 'food', 'health', 'point_of_interest', 'store', 'establishment']"
34,Twice Daily,"204 White Bridge Rd, Nashville, TN 37209",36.13847,-86.85723999999999,"['convenience_store', 'bakery', 'cafe', 'liquor_store', 'restaurant', 'food', 'point_of_interest', 'store', 'establishment']"
35,Tigermarket,"1401 Charlotte Ave, Nashville, TN 37203",36.160162,-86.79427,"['convenience_store', 'food', 'point_of_interest', 'store', 'establishment']"
36,Joy Market - Gulf Gas Station,"3767 Nolensville Pike, Nashville, TN 37211",36.0915418,-86.73544910000001,"['convenience_store', 'gas_station', 'food', 'point_of_interest', 'store', 'establishment']"
37,Tri Star Energy #8235,"9 Hermitage Ave #2109, Nashville, TN 37210",36.1571023,-86.77025069999999,"['convenience_store', 'food', 'point_of_interest', 'store', 'establishment']"
38,Express Food Mart,"1101 Woodland St, Nashville, TN 37206",36.177783,-86.74959240000001,"['convenience_store', 'gas_station', 'food', 'point_of_interest', 'store', 'establishment']"
39,Mapco Express,"6624 Charlotte Pike, Nashville, TN 37209",36.137319,-86.8832936,"['convenience_store', 'atm', 'gas_station', 'finance', 'food', 'point_of_interest', 'store', 'establishment']"
40,R Market,"925 40th Ave N, Nashville, TN 37209",36.1610381,-86.8363547,"['convenience_store', 'food', 'point_of_interest', 'store', 'establishment']"
41,7-Eleven,"1111 Broadway, Nashville, TN 37203",36.15654780000001,-86.78671980000001,"['convenience_store', 'food', 'point_of_interest', 'store', 'establishment']"
42,Mucho Express,"167 Lafayette St, Nashville, TN 37210",36.14684099999999,-86.757527,"['convenience_store', 'gas_station', 'food', 'point_of_interest', 'store', 'establishment']"
43,Shell,"1700 West End Ave, Nashville, TN 37203",36.1538558,-86.79486539999999,"['gas_station', 'atm', 'convenience_store', 'finance', 'restaurant', 'food', 'point_of_interest', 'store', 'establishment']"
44,Walgreens,"3901 Hillsboro Pike, Nashville, TN 37215",36.1056066,-86.8149474,"['drugstore', 'convenience_store', 'food', 'health', 'point_of_interest', 'clothing_store', 'store', 'establishment']"
45,DB Todd Market,"1509 Dr DB Todd Jr Blvd, Nashville, TN 37208",36.172976,-86.8082877,"['convenience_store', 'atm', 'finance', 'food', 'point_of_interest', 'store', 'establishment']"
46,Food Mart,"Balmy Ave, Nashville, TN 37209",36.1481713,-86.8671358,"['convenience_store', 'food', 'point_of_interest', 'store', 'establishment']"
47,Tri Star Energy #7204,"4601 Alabama Ave #3446, Nashville, TN 37209",36.152961,-86.842513,"['convenience_store', 'food', 'point_of_interest', 'store', 'establishment']"
48,Dailys,"6012 Charlotte Pike, Nashville, TN 37209",36.14859910000001,-86.86694419999999,"['convenience_store', 'gas_station', 'food', 'point_of_interest', 'store', 'establishment']"
49,7-Eleven,"1401 Charlotte Ave, Nashville, TN 37203",36.1602415,-86.7939823,"['convenience_store', 'food', 'point_of_interest', 'store', 'establishment']"
50,Larry's Quick Stop,"240 N 1st St, Nashville, TN 37213",36.1765293,-86.7751309,"['convenience_store', 'gas_station', 'grocery_or_supermarket', 'food', 'point_of_interest', 'store', 'establishment']"
51,Kwik Stop Super Mercado,"327 Plus Park Blvd, Nashville, TN 37217",36.1322829,-86.7239032,"['convenience_store', 'food', 'point_of_interest', 'store', 'establishment']"
52,Tiger Mart,"2022 Rosa L Parks Blvd, Nashville, TN 37228",36.1884532,-86.79817659999999,"['convenience_store', 'atm', 'gas_station', 'finance', 'food', 'point_of_interest', 'store', 'establishment']"
53,Sunrise Express Market or the corner mart,"2600 Clarksville Pike, Nashville, TN 37208",36.1868679,-86.81898699999999,"['convenience_store', 'gas_station', 'food', 'point_of_interest', 'store', 'establishment']"
54,High Tail,"1740 Ed Temple Blvd, Nashville, TN 37208",36.1796496,-86.82384359999999,"['convenience_store', 'food', 'point_of_interest', 'store', 'establishment']"
55,CVS,"3801 Hillsboro Pike, Nashville, TN 37215",36.1090329,-86.81247429999999,"['drugstore', 'convenience_store', 'food', 'health', 'point_of_interest', 'clothing_store', 'store', 'establishment']"
56,7-Eleven,"2022 Rosa L Parks Blvd, Nashville, TN 37228",36.18841270000001,-86.7977485,"['convenience_store', 'food', 'point_of_interest', 'store', 'establishment']"
57,Tri Star Energy,"301 White Bridge Rd, Nashville, TN 37209",36.1453046,-86.8585265,"['convenience_store', 'food', 'point_of_interest', 'store', 'establishment']"
58,Big Mo Market,"125 Lafayette St, Nashville, TN 37210",36.1479793,-86.7607179,"['convenience_store', 'food', 'point_of_interest', 'store', 'establishment']"
59,Shell,"724 Thompson Ln, Nashville, TN 37204",36.112566,-86.7665948,"['gas_station', 'atm', 'convenience_store', 'finance', 'food', 'point_of_interest', 'store', 'establishment']"
