,shop_name,shop_address,shop_lat,shop_lng,types
0,Mobil,"2022 Rosa L Parks Blvd, Nashville, TN 37228",36.1883157,-86.798082,"['gas_station', 'point_of_interest', 'establishment']"
1,Exxon,"2022 U.S. 41 Alt Scn, Nashville, TN 37228",36.1884159,-86.79809809999999,"['gas_station', 'point_of_interest', 'establishment']"
2,Tiger Mart,"2022 Rosa L Parks Blvd, Nashville, TN 37228",36.1884532,-86.79817659999999,"['convenience_store', 'atm', 'gas_station', 'finance', 'food', 'point_of_interest', 'store', 'establishment']"
3,Z Mart #7,"2610 Clarksville Pike, Nashville, TN 37208",36.1868567,-86.8194044,"['gas_station', 'point_of_interest', 'store', 'establishment']"
4,Kwik Sak,"2012 S Hamilton Rd, Nashville, TN 37218",36.1931463,-86.8310599,"['gas_station', 'car_repair', 'point_of_interest', 'establishment']"
5,Exxon,"3200 Clarksville Hwy, Nashville, TN 37218",36.1942202,-86.8312074,"['gas_station', 'point_of_interest', 'establishment']"
6,Citgo,"701 Dickerson Pike, Nashville, TN 37207",36.1834471,-86.7735567,"['gas_station', 'convenience_store', 'food', 'point_of_interest', 'store', 'establishment']"
7,MAPCO Mart,"801 Jefferson St, Nashville, TN 37208",36.1729733,-86.7916154,"['gas_station', 'convenience_store', 'food', 'point_of_interest', 'store', 'establishment']"
8,Shell,"2312 Brick Church Pike, Nashville, TN 37207",36.2086752,-86.778131,"['gas_station', 'atm', 'car_wash', 'convenience_store', 'finance', 'food', 'point_of_interest', 'store', 'establishment']"
9,Victory Fuels,"591 W Trinity Ln, Nashville, TN 37207",36.2073781,-86.7914964,"['gas_station', 'point_of_interest', 'establishment']"
10,Gas Station,"766 Douglas Ave, Nashville, TN 37207",36.1930944,-86.7536492,"['gas_station', 'point_of_interest', 'establishment']"
11,Zack's Express,"US-41 ALT, Nashville, TN 37218",36.1964957,-86.8353087,"['gas_station', 'point_of_interest', 'establishment']"
12,Kroger Fuel Center,"800 Monroe St, Nashville, TN 37208",36.1753683,-86.7932111,"['gas_station', 'point_of_interest', 'establishment']"
13,Pauls Market,"1800 Jefferson St, Nashville, TN 37208",36.1696983,-86.8071799,"['gas_station', 'atm', 'finance', 'point_of_interest', 'establishment']"
14,Shell,"1700 West End Ave, Nashville, TN 37203",36.1538558,-86.79486539999999,"['gas_station', 'atm', 'convenience_store', 'finance', 'restaurant', 'food', 'point_of_interest', 'store', 'establishment']"
15,Marathon Gas,"234 W Trinity Ln, Nashville, TN 37207",36.20646869999999,-86.7790891,"['gas_station', 'point_of_interest', 'establishment']"
16,Shell,"2112 Charlotte Ave, Nashville, TN 37203",36.15665730000001,-86.8069031,"['gas_station', 'atm', 'car_wash', 'convenience_store', 'finance', 'food', 'point_of_interest', 'store', 'establishment']"
17,bp,"801 Jefferson St, Nashville, TN 37208",36.1729586,-86.7916134,"['gas_station', 'point_of_interest', 'establishment']"
18,Marathon,"1101 Woodland St, Nashville, TN 37206",36.1777787,-86.7497868,"['gas_station', 'point_of_interest', 'establishment']"
19,F & B Mart,"3900 Clarksville Pike, Nashville, TN 37218",36.2077458,-86.83951499999999,"['gas_station', 'atm', 'finance', 'point_of_interest', 'establishment']"
20,CITGO East Nashville,"500 Main St, Nashville, TN 37206",36.1728044,-86.76475320000002,"['gas_station', 'convenience_store', 'restaurant', 'food', 'point_of_interest', 'store', 'establishment']"
21,Shell,"1001 Shelby Ave, Nashville, TN 37206",36.1715523,-86.7518729,"['gas_station', 'atm', 'convenience_store', 'finance', 'restaurant', 'food', 'point_of_interest', 'store', 'establishment']"
22,Z Mart,"803 Dickerson Pike, Nashville, TN 37207",36.18473150000001,-86.7733919,"['gas_station', 'point_of_interest', 'establishment']"
23,MyStik,"298 N 1st St, Nashville, TN 37207",36.1766714,-86.7748793,"['gas_station', 'point_of_interest', 'establishment']"
24,Citgo,"336 E Trinity Ln, Nashville, TN 37207",36.2052219,-86.7618148,"['gas_station', 'point_of_interest', 'establishment']"
25,Phillips 66,"240 N 1st St, Nashville, TN 37213",36.1765293,-86.7751309,"['gas_station', 'point_of_interest', 'establishment']"
26,Exxon,"Nashville, TN 37228",36.1881746,-86.798175,"['gas_station', 'point_of_interest', 'establishment']"
27,MAPCO,"611 51st Ave N, Nashville, TN 37209",36.1550394,-86.8489791,"['gas_station', 'convenience_store', 'food', 'point_of_interest', 'store', 'establishment']"
28,Pacific Pride,"Nashville, TN 37208",36.1791493,-86.8242198,"['gas_station', 'point_of_interest', 'establishment']"
29,EASTSIDE GAS SHOP-N-GO,"726 Mcferrin Ave, Nashville, TN 37206",36.1842375,-86.7550526,"['gas_station', 'point_of_interest', 'establishment']"
30,MAPCO,"1507 21st Ave S, Nashville, TN 37212",36.138915,-86.80095,"['gas_station', 'convenience_store', 'food', 'point_of_interest', 'store', 'establishment']"
31,Sunoco,"2202 Dickerson Pike, Nashville, TN 37207",36.2061248,-86.76884659999999,"['gas_station', 'meal_takeaway', 'restaurant', 'food', 'point_of_interest', 'establishment']"
32,Exxon,"2200 Brick Church Pike, Nashville, TN 37207",36.2074266,-86.77829419999999,"['gas_station', 'point_of_interest', 'establishment']"
33,Citgo,"Lemuel Rd, Nashville, TN 37207",36.2157404,-86.76343159999999,"['gas_station', 'point_of_interest', 'establishment']"
34,Kwik sak,"2804 West End Ave #2804, Nashville, TN 37203",36.1450733,-86.8126546,"['gas_station', 'point_of_interest', 'establishment']"
35,Exxon,"227 Shelby Ave, Nashville, TN 37213",36.1662861,-86.76640080000001,"['gas_station', 'point_of_interest', 'establishment']"
36,Exxon,"1401 Charlotte Ave, Nashville, TN 37203",36.1602415,-86.7939823,"['gas_station', 'point_of_interest', 'establishment']"
37,MAPCO Mart,"712 Main St, Nashville, TN 37206",36.1746163,-86.7599582,"['gas_station', 'convenience_store', 'food', 'point_of_interest', 'store', 'establishment']"
38,MAPCO Mart,"2813 Dickerson Pike, Nashville, TN 37207",36.218611,-86.7623941,"['gas_station', 'convenience_store', 'food', 'point_of_interest', 'store', 'establishment']"
39,Marathon Gas,"2801 John A Merritt Blvd, Nashville, TN 37209",36.1677041,-86.820956,"['gas_station', 'point_of_interest', 'establishment']"
40,Shell,"9 Hermitage Ave, Nashville, TN 37210",36.1571194,-86.77026049999999,"['gas_station', 'atm', 'convenience_store', 'finance', 'restaurant', 'food', 'point_of_interest', 'store', 'establishment']"
41,A Plus,"227 Shelby Ave, Nashville, TN 37213",36.1665304,-86.76653309999999,"['gas_station', 'point_of_interest', 'establishment']"
42,Little Barn Market,"3909 Clarksville Pike, Nashville, TN 37218",36.2091591,-86.8397012,"['gas_station', 'atm', 'convenience_store', 'finance', 'food', 'point_of_interest', 'store', 'establishment']"
43,Trillium,"402 N 1st St, Nashville, TN 37207",36.1784445,-86.7749211,"['gas_station', 'point_of_interest', 'store', 'establishment']"
44,Kwik Sak,"4160 Clarksville Pike, Nashville, TN 37218",36.21814,-86.83669499999999,"['gas_station', 'point_of_interest', 'establishment']"
45,Kroger Fuel Center,"3930 Clarksville Pike, Nashville, TN 37218",36.2106742,-86.8385638,"['gas_station', 'point_of_interest', 'establishment']"
46,Marathon Gas,"2811 John A Merritt Blvd, Nashville, TN 37209",36.1677865,-86.82165169999999,"['gas_station', 'point_of_interest', 'establishment']"
