,shop_name,shop_address,shop_lat,shop_lng,types
0,Jay's Family Restaurant,"3037 Dickerson Pike, Nashville, TN 37207",36.2276172,-86.75919619999999,"['restaurant', 'food', 'point_of_interest', 'establishment']"
1,El Metate,"1805 Dickerson Pike, Nashville, TN 37207",36.2043103,-86.7687433,"['restaurant', 'food', 'point_of_interest', 'establishment']"
2,Coneheads,"1315 Dickerson Pike, Nashville, TN 37207",36.1954555,-86.7717418,"['restaurant', 'food', 'point_of_interest', 'establishment']"
3,Meridian Street Café & Bar,"1800 Dickerson Pike, Nashville, TN 37207",36.2040328,-86.7692544,"['restaurant', 'cafe', 'food', 'point_of_interest', 'establishment']"
4,Uptown Taco and Grill,"1431 Dickerson Pike, Nashville, TN 37207",36.1998854,-86.76973660000002,"['restaurant', 'food', 'point_of_interest', 'establishment']"
5,Taqueria Andrea,"1605 Dickerson Pike, Nashville, TN 37207",36.2030305,-86.7688098,"['restaurant', 'food', 'point_of_interest', 'establishment']"
6,House of Hickory BBQ,"1107 Dickerson Pike, Nashville, TN 37207",36.1906236,-86.77253230000001,"['restaurant', 'food', 'point_of_interest', 'establishment']"
7,THE DIVE TAQUERIA,"1414 Dickerson Pike, Nashville, TN 37207",36.1995161,-86.7717821,"['restaurant', 'food', 'point_of_interest', 'establishment']"
8,Brother Z's Wangs,"1407 Dickerson Pike, Nashville, TN 37207",36.1982054,-86.7706925,"['meal_takeaway', 'restaurant', 'food', 'point_of_interest', 'establishment']"
9,Chicago Style Gyros,"3221 Dickerson Pike, Nashville, TN 37207",36.2352008,-86.7577823,"['restaurant', 'food', 'point_of_interest', 'establishment']"
10,Taqueria La Juquilita,"803 Dickerson Pike, Nashville, TN 37207",36.1846542,-86.7732327,"['restaurant', 'food', 'point_of_interest', 'establishment']"
11,Taqueria El Paladar,"2705 Dickerson Pike, Nashville, TN 37207",36.21577449999999,-86.7633743,"['restaurant', 'food', 'point_of_interest', 'establishment']"
12,Nawlinsville,"1211 Brick Church Pike, Nashville, TN 37207",36.1959778,-86.7764739,"['restaurant', 'food', 'point_of_interest', 'establishment']"
13,Bang Bang Hibachi Grill & Sushi Nashville,"3720 Dickerson Pike, Nashville, TN 37207",36.260811,-86.757922,"['meal_takeaway', 'lodging', 'restaurant', 'food', 'point_of_interest', 'establishment']"
14,Nashville Pizza & Pasta,"1201 Dickerson Pike, Nashville, TN 37207",36.191904,-86.7725251,"['meal_delivery', 'meal_takeaway', 'restaurant', 'food', 'point_of_interest', 'establishment']"
15,Saucey Baby 615,"1111 Dickerson Pike #5406, Nashville, TN 37207",36.1909364,-86.7725281,"['restaurant', 'food', 'point_of_interest', 'establishment']"
16,China Village,"123 Ewing Dr #8, Nashville, TN 37207",36.2299965,-86.7612439,"['restaurant', 'food', 'point_of_interest', 'establishment']"
17,Folk,"823 Meridian St, Nashville, TN 37207",36.185558,-86.767968,"['restaurant', 'food', 'point_of_interest', 'establishment']"
18,Butcher & Bee,"902 Main St, Nashville, TN 37206",36.1758957,-86.7568201,"['restaurant', 'food', 'point_of_interest', 'establishment']"
19,Alibi Restuarant + Lounge,"2919 Dickerson Pike, Nashville, TN 37207",36.2228622,-86.7609863,"['restaurant', 'food', 'point_of_interest', 'establishment']"
20,Waffle House,"3304 Dickerson Pike, Nashville, TN 37207",36.2357224,-86.75867579999999,"['meal_takeaway', 'restaurant', 'food', 'point_of_interest', 'establishment']"
21,Redheaded Stranger,"305 Arrington St, Nashville, TN 37207",36.1850605,-86.76792979999999,"['restaurant', 'food', 'point_of_interest', 'establishment']"
22,Lil Cee's,"605 Douglas Ave, Nashville, TN 37207",36.1940242,-86.75971129999999,"['restaurant', 'food', 'point_of_interest', 'establishment']"
23,Audrey,"809 Meridian St, Nashville, TN 37207",36.1845011,-86.7679733,"['restaurant', 'food', 'point_of_interest', 'establishment']"
24,La Chapina Market,"3110 Dickerson Pike, Nashville, TN 37207",36.2303086,-86.7595321,"['restaurant', 'food', 'point_of_interest', 'establishment']"
25,Tacos Temascal,"803 Dickerson Pike, Nashville, TN 37207",36.1847143,-86.77321889999999,"['restaurant', 'food', 'point_of_interest', 'establishment']"
26,Waffle N’ Chicken,"3112 Dickerson Pike, Nashville, TN 37207",36.2305093,-86.75966749999999,"['restaurant', 'food', 'point_of_interest', 'establishment']"
27,Mallard's,"3803 Dickerson Pike, Nashville, TN 37207",36.2636218,-86.756767,"['restaurant', 'food', 'point_of_interest', 'establishment']"
28,The Flaming Bird,"2312 Brick Church Pike, Nashville, TN 37207",36.2086669,-86.7781425,"['restaurant', 'food', 'point_of_interest', 'establishment']"
29,Taqueria Dominguez,"3056 Dickerson Pike, Nashville, TN 37207",36.2290935,-86.7597657,"['meal_takeaway', 'restaurant', 'food', 'point_of_interest', 'establishment']"
30,Urban Sprout,"1224 Meridian St, Nashville, TN 37207",36.1938001,-86.7672585,"['restaurant', 'food', 'point_of_interest', 'establishment']"
31,International,"2905 Dickerson Pike, Nashville, TN 37207",36.2205086,-86.7607441,"['restaurant', 'food', 'point_of_interest', 'establishment']"
32,White's Fish & BBQ,"3801 Dickerson Pike, Nashville, TN 37207",36.2634433,-86.75680659999999,"['restaurant', 'food', 'point_of_interest', 'establishment']"
33,PoeBoy Luncheon,"3000 Dickerson Pike, Nashville, TN 37207",36.2261039,-86.7603941,"['restaurant', 'food', 'point_of_interest', 'establishment']"
34,Redbird Restaurant,"809 Meridian St, Nashville, TN 37207",36.1845011,-86.7679733,"['restaurant', 'food', 'point_of_interest', 'establishment']"
35,Taqueria Soccer Taco Truck,"2202 Dickerson Pike, Nashville, TN 37207",36.206118,-86.7688127,"['restaurant', 'food', 'point_of_interest', 'establishment']"
36,Jack's Bar-B-Que,"334 W Trinity Ln, Nashville, TN 37207",36.206707,-86.7822949,"['restaurant', 'food', 'point_of_interest', 'establishment']"
37,La Parrilla Fresh Mexican Bar & Grill,"305 W Trinity Ln, Nashville, TN 37207",36.2073249,-86.77941129999999,"['meal_takeaway', 'bar', 'restaurant', 'food', 'point_of_interest', 'establishment']"
38,Rock'n Dough Pizza & Brewery,"3449 Dickerson Pike, Nashville, TN 37207",36.2441722,-86.7558833,"['restaurant', 'food', 'point_of_interest', 'establishment']"
39,Chicago gyros,"123 Ewing Dr, Nashville, TN 37207",36.2300372,-86.7610028,"['restaurant', 'food', 'point_of_interest', 'establishment']"
40,Hunters Station,"975 Main St, Nashville, TN 37206",36.1782696,-86.75218129999999,"['restaurant', 'food', 'point_of_interest', 'establishment']"
41,Remesas,"Nashville, TN 37207",36.1998862,-86.7697614,"['restaurant', 'food', 'point_of_interest', 'establishment']"
42,Red House Chicken and Shrimp,"975 Main St, Nashville, TN 37206",36.1782943,-86.7522834,"['restaurant', 'food', 'point_of_interest', 'establishment']"
43,Margot Cafe & Bar,"1017 Woodland St, Nashville, TN 37206",36.1775861,-86.7504111,"['restaurant', 'food', 'point_of_interest', 'establishment']"
44,Jazzy's,"1520 Hampton St, Nashville, TN 37207",36.2081578,-86.7790785,"['bar', 'restaurant', 'food', 'point_of_interest', 'establishment']"
45,StrikeOut Wingz,"123 Ewing Dr Suite 3, Nashville, TN 37207",36.2299939,-86.7608537,"['restaurant', 'food', 'point_of_interest', 'establishment']"
46,The Mainstay Restaurant,"501 Main St, Nashville, TN 37206",36.1731217,-86.7651901,"['parking', 'bar', 'restaurant', 'food', 'point_of_interest', 'establishment']"
47,Zeppelin Nashville Rooftop Bar & Lounge,"505 3rd Ave N, Nashville, TN 37201",36.1687411,-86.7813554,"['restaurant', 'night_club', 'bar', 'food', 'point_of_interest', 'establishment']"
48,Waffle House,"238 W Trinity Ln, Nashville, TN 37207",36.2063644,-86.7795134,"['meal_takeaway', 'restaurant', 'food', 'point_of_interest', 'establishment']"
49,Saint Stephen,"1300 3rd Ave N, Nashville, TN 37208",36.1779218,-86.7864236,"['restaurant', 'food', 'point_of_interest', 'establishment']"
50,Brother Z's Wang Shack,"3825 Dickerson Pike, Nashville, TN 37207",36.2659959,-86.7566274,"['restaurant', 'food', 'point_of_interest', 'establishment']"
51,KFC,"3035 Dickerson Pike, Nashville, TN 37207",36.2273161,-86.7591739,"['restaurant', 'food', 'point_of_interest', 'establishment']"
52,Peninsula,"1035 W Eastland Ave, Nashville, TN 37206",36.1838772,-86.74999439999999,"['restaurant', 'food', 'point_of_interest', 'establishment']"
53,Tailor Nashville,"620 Taylor St, Nashville, TN 37208",36.17751459999999,-86.79226580000001,"['restaurant', 'food', 'point_of_interest', 'establishment']"
54,Wendy's,"3131 Dickerson Pike, Nashville, TN 37207",36.2328356,-86.7582874,"['restaurant', 'food', 'point_of_interest', 'establishment']"
55,Sonic Drive-In,"2312 Dickerson Pike, Nashville, TN 37207",36.2080858,-86.76809689999999,"['restaurant', 'food', 'point_of_interest', 'store', 'establishment']"
56,Subway,"3010 Dickerson Rd, Nashville, TN 37207",36.2266935,-86.7603666,"['meal_takeaway', 'restaurant', 'food', 'point_of_interest', 'establishment']"
57,Retrograde Coffee,"1305 Dickerson Pike, Nashville, TN 37207",36.1950467,-86.7718289,"['restaurant', 'cafe', 'food', 'point_of_interest', 'store', 'establishment']"
58,Mas Tacos Por Favor,"732 Mcferrin Ave, Nashville, TN 37206",36.1847707,-86.75470729999999,"['atm', 'finance', 'restaurant', 'food', 'point_of_interest', 'establishment']"
59,Kingdom Cafe & Grill,"3826 Whites Creek Pike, Nashville, TN 37207",36.2477352,-86.8265071,"['restaurant', 'food', 'point_of_interest', 'establishment']"
