,shop_name,shop_address,shop_lat,shop_lng,types
0,R & R Drive In Market,"1041 Jefferson St, Nashville, TN 37208",36.1716039,-86.79664969999999,"['convenience_store', 'food', 'point_of_interest', 'store', 'establishment']"
1,37208 Market & Cafe,"1625 23rd Ave N, Nashville, TN 37208",36.1764964,-86.813825,"['convenience_store', 'food', 'point_of_interest', 'store', 'establishment']"
2,Discounts Mart,"1613 Buchanan St, Nashville, TN 37208",36.1796962,-86.810467,"['convenience_store', 'food', 'point_of_interest', 'store', 'establishment']"
3,MAPCO Mart,"801 Jefferson St, Nashville, TN 37208",36.1729733,-86.7916154,"['gas_station', 'convenience_store', 'food', 'point_of_interest', 'store', 'establishment']"
4,Garfield Market,"1705 Jenkins St, Nashville, TN 37208",36.1801309,-86.7985218,"['convenience_store', 'food', 'point_of_interest', 'store', 'establishment']"
5,DB Todd Market,"1509 Dr DB Todd Jr Blvd, Nashville, TN 37208",36.172976,-86.8082877,"['convenience_store', 'atm', 'finance', 'food', 'point_of_interest', 'store', 'establishment']"
6,z mart 7 inc.,"2610 Clarksville Pike, Nashville, TN 37208",36.1872022,-86.81934600000001,"['convenience_store', 'food', 'point_of_interest', 'store', 'establishment']"
7,Sunrise Express Market or the corner mart,"2600 Clarksville Pike, Nashville, TN 37208",36.1868679,-86.81898699999999,"['convenience_store', 'gas_station', 'food', 'point_of_interest', 'store', 'establishment']"
8,High Tail,"1740 Ed Temple Blvd, Nashville, TN 37208",36.1796496,-86.82384359999999,"['convenience_store', 'food', 'point_of_interest', 'store', 'establishment']"
9,Larry's Quick Stop,"240 N 1st St, Nashville, TN 37213",36.1765293,-86.7751309,"['convenience_store', 'gas_station', 'grocery_or_supermarket', 'food', 'point_of_interest', 'store', 'establishment']"
10,Tigermarket,"1401 Charlotte Ave, Nashville, TN 37203",36.160162,-86.79427,"['convenience_store', 'food', 'point_of_interest', 'store', 'establishment']"
11,Tiger Mart,"2022 Rosa L Parks Blvd, Nashville, TN 37228",36.1884532,-86.79817659999999,"['convenience_store', 'atm', 'gas_station', 'finance', 'food', 'point_of_interest', 'store', 'establishment']"
12,7-Eleven,"2022 Rosa L Parks Blvd, Nashville, TN 37228",36.18841270000001,-86.7977485,"['convenience_store', 'food', 'point_of_interest', 'store', 'establishment']"
13,Citgo,"701 Dickerson Pike, Nashville, TN 37207",36.1834471,-86.7735567,"['gas_station', 'convenience_store', 'food', 'point_of_interest', 'store', 'establishment']"
14,Corner Market,"300 Church St, Nashville, TN 37201",36.1642907,-86.7778771,"['convenience_store', 'drugstore', 'cafe', 'liquor_store', 'food', 'health', 'point_of_interest', 'store', 'establishment']"
15,Twice Daily,"2112 Charlotte Ave, Nashville, TN 37203",36.156704,-86.80691999999999,"['convenience_store', 'bakery', 'cafe', 'liquor_store', 'restaurant', 'food', 'point_of_interest', 'store', 'establishment']"
16,7-Eleven,"1401 Charlotte Ave, Nashville, TN 37203",36.1602415,-86.7939823,"['convenience_store', 'food', 'point_of_interest', 'store', 'establishment']"
17,Star Market,"903 Dickerson Pike, Nashville, TN 37207",36.1877595,-86.7730452,"['convenience_store', 'grocery_or_supermarket', 'food', 'point_of_interest', 'store', 'establishment']"
18,Twice Daily,"1702 West End Ave, Nashville, TN 37203",36.15396,-86.79513,"['convenience_store', 'bakery', 'cafe', 'liquor_store', 'restaurant', 'food', 'point_of_interest', 'store', 'establishment']"
19,Cardwell's Market,"9 Hermitage Ave, Nashville, TN 37210",36.1571023,-86.77025069999999,"['convenience_store', 'gas_station', 'food', 'point_of_interest', 'store', 'establishment']"
20,7-Eleven,"3200 Clarksville Pike, Nashville, TN 37218",36.1940918,-86.8313685,"['convenience_store', 'food', 'point_of_interest', 'store', 'establishment']"
21,Virginia's Market,"703 18th Ave S, Nashville, TN 37203",36.1509379,-86.794602,"['convenience_store', 'food', 'point_of_interest', 'store', 'establishment']"
22,DGX,"2034 West End Ave, Nashville, TN 37203",36.15072869999999,-86.8011823,"['convenience_store', 'drugstore', 'home_goods_store', 'liquor_store', 'food', 'health', 'point_of_interest', 'store', 'establishment']"
23,Shell,"1700 West End Ave, Nashville, TN 37203",36.1538558,-86.79486539999999,"['gas_station', 'atm', 'convenience_store', 'finance', 'restaurant', 'food', 'point_of_interest', 'store', 'establishment']"
24,4 Stop Market,"1401 Woodland St, Nashville, TN 37206",36.1774721,-86.7455879,"['convenience_store', 'grocery_or_supermarket', 'food', 'point_of_interest', 'store', 'establishment']"
25,Danny's Market,"1497 County Hospital Rd, Nashville, TN 37218",36.1852239,-86.84285179999999,"['convenience_store', 'food', 'point_of_interest', 'store', 'establishment']"
26,DGX,"206 3rd Ave S, Nashville, TN 37201",36.1592225,-86.7743333,"['convenience_store', 'drugstore', 'home_goods_store', 'liquor_store', 'food', 'health', 'point_of_interest', 'store', 'establishment']"
27,R Market,"925 40th Ave N, Nashville, TN 37209",36.1610381,-86.8363547,"['convenience_store', 'food', 'point_of_interest', 'store', 'establishment']"
28,Shell,"2112 Charlotte Ave, Nashville, TN 37203",36.15665730000001,-86.8069031,"['gas_station', 'atm', 'car_wash', 'convenience_store', 'finance', 'food', 'point_of_interest', 'store', 'establishment']"
29,Minit Saver Markets,"703 18th Ave S, Nashville, TN 37203",36.15091779999999,-86.7945953,"['convenience_store', 'food', 'point_of_interest', 'store', 'establishment']"
30,One Stop Market,"626 40th Ave N, Nashville, TN 37209",36.1568918,-86.8339822,"['convenience_store', 'food', 'point_of_interest', 'store', 'establishment']"
31,7-Eleven,"1111 Broadway, Nashville, TN 37203",36.15654780000001,-86.78671980000001,"['convenience_store', 'food', 'point_of_interest', 'store', 'establishment']"
32,All Star Mini Mart,"2201 Whites Creek Pike, Nashville, TN 37207",36.2075966,-86.7913439,"['convenience_store', 'food', 'point_of_interest', 'store', 'establishment']"
33,Stop-N-Shop,"5100 Indiana Ave, Nashville, TN 37209",36.1566546,-86.8490004,"['convenience_store', 'food', 'point_of_interest', 'store', 'establishment']"
34,Express Food Mart,"1101 Woodland St, Nashville, TN 37206",36.177783,-86.74959240000001,"['convenience_store', 'gas_station', 'food', 'point_of_interest', 'store', 'establishment']"
35,Tiger Mart,"3400 West End Ave, Nashville, TN 37203",36.1391673,-86.82003429999999,"['convenience_store', 'food', 'point_of_interest', 'store', 'establishment']"
36,CITGO East Nashville,"500 Main St, Nashville, TN 37206",36.1728044,-86.76475320000002,"['gas_station', 'convenience_store', 'restaurant', 'food', 'point_of_interest', 'store', 'establishment']"
37,White Bison Coffee,"2112 Charlotte Ave, Nashville, TN 37203",36.1568107,-86.80705929999999,"['convenience_store', 'cafe', 'restaurant', 'food', 'point_of_interest', 'store', 'establishment']"
38,Laverte's Market,"1313 51st Ave N, Nashville, TN 37209",36.1622661,-86.8495933,"['convenience_store', 'food', 'point_of_interest', 'store', 'establishment']"
39,Dollar General,"1755 Dr DB Todd Jr Blvd, Nashville, TN 37208",36.179901,-86.8114621,"['drugstore', 'convenience_store', 'home_goods_store', 'food', 'health', 'point_of_interest', 'store', 'establishment']"
40,Circle K,"2001 Belmont Blvd, Nashville, TN 37212",36.1325585,-86.7959664,"['convenience_store', 'atm', 'gas_station', 'finance', 'food', 'point_of_interest', 'store', 'establishment']"
41,Tri Star Energy #8235,"9 Hermitage Ave #2109, Nashville, TN 37210",36.1571023,-86.77025069999999,"['convenience_store', 'food', 'point_of_interest', 'store', 'establishment']"
42,ATM,"2600 Clarksville Pike, Nashville, TN 37208",36.1868679,-86.81898699999999,"['atm', 'convenience_store', 'finance', 'food', 'point_of_interest', 'store', 'establishment']"
43,Big Mo Market,"125 Lafayette St, Nashville, TN 37210",36.1479793,-86.7607179,"['convenience_store', 'food', 'point_of_interest', 'store', 'establishment']"
44,Shell,"9 Hermitage Ave, Nashville, TN 37210",36.1571194,-86.77026049999999,"['gas_station', 'atm', 'convenience_store', 'finance', 'restaurant', 'food', 'point_of_interest', 'store', 'establishment']"
45,Mucho Express,"167 Lafayette St, Nashville, TN 37210",36.14684099999999,-86.757527,"['convenience_store', 'gas_station', 'food', 'point_of_interest', 'store', 'establishment']"
46,Community Mart,"336 E Trinity Ln, Nashville, TN 37207",36.2050054,-86.76184549999999,"['convenience_store', 'food', 'point_of_interest', 'store', 'establishment']"
47,Jack's Market,"4421 Murphy Rd, Nashville, TN 37209",36.1407102,-86.83981659999999,"['convenience_store', 'food', 'point_of_interest', 'store', 'establishment']"
48,A a Mart,"2700 Whites Creek Pike, Nashville, TN 37207",36.2185553,-86.8041605,"['convenience_store', 'gas_station', 'food', 'point_of_interest', 'store', 'establishment']"
49,7-Eleven,"3400 West End Ave, Nashville, TN 37203",36.139095,-86.8200165,"['convenience_store', 'food', 'point_of_interest', 'store', 'establishment']"
50,7-Eleven,"227 Shelby Ave, Nashville, TN 37213",36.1662702,-86.766451,"['convenience_store', 'food', 'point_of_interest', 'store', 'establishment']"
51,Z-Mart,"927 Gallatin Ave, Nashville, TN 37206",36.1879609,-86.74594069999999,"['convenience_store', 'atm', 'gas_station', 'finance', 'food', 'point_of_interest', 'store', 'establishment']"
52,Tiger Mart,"2200 Brick Church Pike, Nashville, TN 37207",36.2073916,-86.7783393,"['convenience_store', 'atm', 'gas_station', 'finance', 'food', 'point_of_interest', 'store', 'establishment']"
53,7-Eleven,"2200 Brick Church Pike, Nashville, TN 37207",36.20764870000001,-86.7781835,"['convenience_store', 'food', 'point_of_interest', 'store', 'establishment']"
54,Save A Trip Market & Laundry,"1520 Porter Rd, Nashville, TN 37206",36.1947102,-86.7257111,"['convenience_store', 'food', 'point_of_interest', 'store', 'establishment']"
55,Little Barn Market,"3909 Clarksville Pike, Nashville, TN 37218",36.2091591,-86.8397012,"['gas_station', 'atm', 'convenience_store', 'finance', 'food', 'point_of_interest', 'store', 'establishment']"
